{
  "connection": {
    "host": "localhost",
    "port": 5432,
    "dbname": "tests",
    "user": "postgres",
    "password": "postgres"
  },
  "table": "tests.accesscount_access_lastdata",
  "conditions": [
    {
      "timeinstant" : "2025-05-17T08:46:00.000Z",
      "refzone" : null,
      "refzonesec" : null,
      "name" : "Ayuntamiento X",
      "description" : "Acceso ubicado a altura de calle principal",
      "location" : "POINT (-1.08 1.68)",
      "period" : 60.0,
      "numberofincoming" : 10.0,
      "numberofoutgoing" : 5.0,
      "category" : "barrera",
      "status" : "abierto",
      "width" : 120.0,
      "length" : 400.0,
      "capacity" : 203.0,
      "averagestay" : 15.0,
      "floor" : 0.0,
      "zip" : "NA",
      "zone" : "NA",
      "district" : "NA",
      "municipality" : "NA",
      "province" : "NA",
      "region" : "NA",
      "community" : "NA",
      "country" : "NA",
      "streetaddress" : "Direccion X",
      "postalcode" : "NA",
      "addresslocality" : "NA",
      "addressregion" : "NA",
      "addresscommunity" : "NA",
      "addresscountry" : "NA",
      "entityid" : "NPO-104",
      "entitytype" : "Access",
      "fiwareservicepath" : "\/accesscount"
    },
    {
      "timeinstant" : "2025-05-20T11:31:43.000Z",
      "refzone" : "ZONA-NPO-101",
      "refzonesec" : null,
      "name" : "Ayuntamiento X",
      "description" : "Acceso ubicado a altura de calle principal",
      "location" : "POINT (-1.026029 1.866109)",
      "period" : 60.0,
      "numberofincoming" : 31.5,
      "numberofoutgoing" : 24.5,
      "category" : "barrera",
      "status" : "abierto",
      "width" : 120.0,
      "length" : 400.0,
      "capacity" : 203.0,
      "averagestay" : 15.0,
      "floor" : 0.0,
      "zip" : "NA",
      "zone" : "NA",
      "district" : "NA",
      "municipality" : "NA",
      "province" : "NA",
      "region" : "NA",
      "community" : "NA",
      "country" : "NA",
      "streetaddress" : "Direccion X",
      "postalcode" : "NA",
      "addresslocality" : "NA",
      "addressregion" : "NA",
      "addresscommunity" : "NA",
      "addresscountry" : "NA",
      "entityid" : "NPO-102",
      "entitytype" : "Access",
      "fiwareservicepath" : "\/accesscount"
    },
    {
      "timeinstant" : "2025-05-20T11:31:43.000Z",
      "refzone" : null,
      "refzonesec" : "ZONA-NPO-103",
      "name" : "Ayuntamiento X",
      "description" : "Acceso ubicado a altura de calle principal",
      "location" : "POINT (-1.046029 1.886109)",
      "period" : 60.0,
      "numberofincoming" : 29.5,
      "numberofoutgoing" : 25.0,
      "category" : "barrera",
      "status" : "abierto",
      "width" : 120.0,
      "length" : 400.0,
      "capacity" : 203.0,
      "averagestay" : 15.0,
      "floor" : 0.0,
      "zip" : "NA",
      "zone" : "NA",
      "district" : "NA",
      "municipality" : "NA",
      "province" : "NA",
      "region" : "NA",
      "community" : "NA",
      "country" : "NA",
      "streetaddress" : "Direccion X",
      "postalcode" : "NA",
      "addresslocality" : "NA",
      "addressregion" : "NA",
      "addresscommunity" : "NA",
      "addresscountry" : "NA",
      "entityid" : "NPO-103",
      "entitytype" : "Access",
      "fiwareservicepath" : "\/accesscount"
    },
    {
      "timeinstant" : "2025-05-02T09:35:00.000Z",
      "refzone" : "ZONA-NPO-101",
      "description" : "Acceso ubicado a altura de calle principal",
      "location" : "POINT (-1.026029 1.986109)",
      "period" : 60.0,
      "numberofincoming" : 67.0,
      "numberofoutgoing" : 45.0,
      "category" : "barrera",
      "status" : "abierto",
      "width" : 120.0,
      "length" : 400.0,
      "capacity" : 150.0,
      "averagestay" : 15.0,
      "floor" : 0.0,
      "zip" : "NA",
      "zone" : "NA",
      "district" : "NA",
      "municipality" : "NA",
      "province" : "NA",
      "region" : "NA",
      "community" : "NA",
      "country" : "NA",
      "postalcode" : "NA",
      "addresslocality" : "NA",
      "addressregion" : "NA",
      "addresscommunity" : "NA",
      "addresscountry" : "NA",
      "entityid" : "NPO-101",
      "entitytype" : "Access",
      "fiwareservicepath" : "\/accesscount"
    }]
}